[
    {
        "iso": "ABW",
        "country_name": "Aruba",
        "lat_min": 12.1702998,
        "lat_max": 12.8102998,
        "lon_min": -70.2809842,
        "lon_max": -69.6409842
    },
    {
        "iso": "AFG",
        "country_name": "Afghanistan",
        "lat_min": 29.3772,
        "lat_max": 38.4910682,
        "lon_min": 60.5176034,
        "lon_max": 74.889862
    },
    {
        "iso": "AGO",
        "country_name": "Angola",
        "lat_min": -18.038945,
        "lat_max": -4.3880634,
        "lon_min": 11.4609793,
        "lon_max": 24.0878856
    },
    {
        "iso": "AIA",
        "country_name": "Anguilla",
        "lat_min": 18.0615454,
        "lat_max": 18.7951194,
        "lon_min": -63.6391992,
        "lon_max": -62.7125449
    },
    {
        "iso": "ALA",
        "country_name": "Åland Islands",
        "lat_min": 59.4541578,
        "lat_max": 60.87665,
        "lon_min": 19.0832098,
        "lon_max": 21.3456556
    },
    {
        "iso": "ALB",
        "country_name": "Albania",
        "lat_min": 11.081041,
        "lat_max": 11.408791,
        "lon_min": -72.6598913,
        "lon_max": -72.4039128
    },
    {
        "iso": "AND",
        "country_name": "Andorra",
        "lat_min": 42.4288238,
        "lat_max": 42.6559357,
        "lon_min": 1.4135781,
        "lon_max": 1.7863837
    },
    {
        "iso": "ANT",
        "country_name": "Netherlands Antilles",
        "lat_min": 12.1544542,
        "lat_max": 12.1547472,
        "lon_min": -68.940593,
        "lon_max": -68.9403518
    },
    {
        "iso": "ARE",
        "country_name": "United Arab Emirates",
        "lat_min": 22.6444,
        "lat_max": 26.2822,
        "lon_min": 51.498,
        "lon_max": 56.3834
    },
    {
        "iso": "ARG",
        "country_name": "Argentina",
        "lat_min": -55.1850761,
        "lat_max": -21.781168,
        "lon_min": -73.5600329,
        "lon_max": -53.6374515
    },
    {
        "iso": "ARM",
        "country_name": "Armenia",
        "lat_min": 4.3951997,
        "lat_max": 4.5895768,
        "lon_min": -75.7854388,
        "lon_max": -75.6325211
    },
    {
        "iso": "ASM",
        "country_name": "American Samoa",
        "lat_min": -14.7608358,
        "lat_max": -10.8449746,
        "lon_min": -171.2951296,
        "lon_max": -167.9322899
    },
    {
        "iso": "ATA",
        "country_name": "Antarctica",
        "lat_min": -85.0511287,
        "lat_max": -60,
        "lon_min": -180,
        "lon_max": 180
    },
    {
        "iso": "ATF",
        "country_name": "French Southern Territories",
        "lat_min": -50.2187169,
        "lat_max": -11.3139928,
        "lon_min": 39.4138676,
        "lon_max": 77.8494974
    },
    {
        "iso": "ATG",
        "country_name": "Antigua and Barbuda",
        "lat_min": 16.7573901,
        "lat_max": 17.929,
        "lon_min": -62.5536517,
        "lon_max": -61.447857
    },
    {
        "iso": "AUS",
        "country_name": "Australia",
        "lat_min": -55.3228175,
        "lat_max": -9.0882278,
        "lon_min": 72.2460938,
        "lon_max": 168.2249543
    },
    {
        "iso": "AUT",
        "country_name": "Austria",
        "lat_min": 46.3722761,
        "lat_max": 49.0205305,
        "lon_min": 9.5307487,
        "lon_max": 17.160776
    },
    {
        "iso": "AZE",
        "country_name": "Azerbaijan",
        "lat_min": 38.3929551,
        "lat_max": 41.9502947,
        "lon_min": 44.7633701,
        "lon_max": 51.0090302
    },
    {
        "iso": "BDI",
        "country_name": "Burundi",
        "lat_min": -4.4693155,
        "lat_max": -2.3096796,
        "lon_min": 29.0007401,
        "lon_max": 30.8498462
    },
    {
        "iso": "BEL",
        "country_name": "Belgium",
        "lat_min": 49.4969821,
        "lat_max": 51.5516667,
        "lon_min": 2.3889137,
        "lon_max": 6.408097
    },
    {
        "iso": "BEN",
        "country_name": "Benin",
        "lat_min": 6.1730586,
        "lat_max": 6.4930586,
        "lon_min": 5.4621058,
        "lon_max": 5.7821058
    },
    {
        "iso": "BFA",
        "country_name": "Burkina Faso",
        "lat_min": 9.4104718,
        "lat_max": 15.084,
        "lon_min": -5.5132416,
        "lon_max": 2.4089717
    },
    {
        "iso": "BGD",
        "country_name": "Bangladesh",
        "lat_min": 20.3756582,
        "lat_max": 26.6382534,
        "lon_min": 88.0075306,
        "lon_max": 92.6804979
    },
    {
        "iso": "BGR",
        "country_name": "Bulgaria",
        "lat_min": 41.2353929,
        "lat_max": 44.2167064,
        "lon_min": 22.3571459,
        "lon_max": 28.8875409
    },
    {
        "iso": "BHR",
        "country_name": "Bahrain",
        "lat_min": 35.1878012,
        "lat_max": 35.2278012,
        "lon_min": 72.5273968,
        "lon_max": 72.5673968
    },
    {
        "iso": "BHS",
        "country_name": "Bahamas",
        "lat_min": 20.7059846,
        "lat_max": 27.4734551,
        "lon_min": -80.7001941,
        "lon_max": -72.4477521
    },
    {
        "iso": "BIH",
        "country_name": "Bosnia and Herzegovina",
        "lat_min": 42.5553114,
        "lat_max": 45.2764135,
        "lon_min": 15.7287433,
        "lon_max": 19.6237311
    },
    {
        "iso": "BLM",
        "country_name": "Saint Barthélemy",
        "lat_min": 17.670931,
        "lat_max": 18.1375569,
        "lon_min": -63.06639,
        "lon_max": -62.5844019
    },
    {
        "iso": "BLR",
        "country_name": "Belarus",
        "lat_min": 51.2575982,
        "lat_max": 56.17218,
        "lon_min": 23.1783344,
        "lon_max": 32.7627809
    },
    {
        "iso": "BLZ",
        "country_name": "Belize",
        "lat_min": 15.8857286,
        "lat_max": 18.496001,
        "lon_min": -89.2262083,
        "lon_max": -87.3098494
    },
    {
        "iso": "BMU",
        "country_name": "Bermuda",
        "lat_min": 32.0469651,
        "lat_max": 32.5913693,
        "lon_min": -65.1232222,
        "lon_max": -64.4109842
    },
    {
        "iso": "BOL",
        "country_name": "Bolivia, Plurinational State of",
        "lat_min": -22.8982742,
        "lat_max": -9.6689438,
        "lon_min": -69.6450073,
        "lon_max": -57.453
    },
    {
        "iso": "BRA",
        "country_name": "Brazil",
        "lat_min": -33.8689056,
        "lat_max": 5.2842873,
        "lon_min": -73.9830625,
        "lon_max": -28.6341164
    },
    {
        "iso": "BRB",
        "country_name": "Barbados",
        "lat_min": 12.845,
        "lat_max": 13.535,
        "lon_min": -59.8562115,
        "lon_max": -59.2147175
    },
    {
        "iso": "BRN",
        "country_name": "Brunei Darussalam",
        "lat_min": 4.002508,
        "lat_max": 5.1011857,
        "lon_min": 114.0758734,
        "lon_max": 115.3635623
    },
    {
        "iso": "BTN",
        "country_name": "Bhutan",
        "lat_min": 26.702016,
        "lat_max": 28.246987,
        "lon_min": 88.7464724,
        "lon_max": 92.1252321
    },
    {
        "iso": "BVT",
        "country_name": "Bouvet Island",
        "lat_min": -54.654,
        "lat_max": -54.187,
        "lon_min": 2.9345531,
        "lon_max": 3.7791099
    },
    {
        "iso": "BWA",
        "country_name": "Botswana",
        "lat_min": -26.9059669,
        "lat_max": -17.778137,
        "lon_min": 19.9986474,
        "lon_max": 29.375304
    },
    {
        "iso": "CAF",
        "country_name": "Central African Republic",
        "lat_min": 25.217277,
        "lat_max": 25.2194356,
        "lon_min": 55.1742999,
        "lon_max": 55.1762608
    },
    {
        "iso": "CAN",
        "country_name": "Canada",
        "lat_min": 41.6765556,
        "lat_max": 83.3362128,
        "lon_min": -141.00275,
        "lon_max": -52.3231981
    },
    {
        "iso": "CCK",
        "country_name": "Cocos (Keeling) Islands",
        "lat_min": -12.4055983,
        "lat_max": -11.6213132,
        "lon_min": 96.612524,
        "lon_max": 97.1357343
    },
    {
        "iso": "CHE",
        "country_name": "Switzerland",
        "lat_min": 45.817995,
        "lat_max": 47.8084648,
        "lon_min": 5.9559113,
        "lon_max": 10.4922941
    },
    {
        "iso": "CHL",
        "country_name": "Chile",
        "lat_min": -56.725,
        "lat_max": -17.4983998,
        "lon_min": -109.6795789,
        "lon_max": -66.0753474
    },
    {
        "iso": "CHN",
        "country_name": "China",
        "lat_min": 8.8383436,
        "lat_max": 53.5608154,
        "lon_min": 73.4997347,
        "lon_max": 134.7754563
    },
    {
        "iso": "CIV",
        "country_name": "Côte d'Ivoire",
        "lat_min": 4.1621205,
        "lat_max": 10.740197,
        "lon_min": -8.601725,
        "lon_max": -2.493031
    },
    {
        "iso": "CMR",
        "country_name": "Cameroon",
        "lat_min": 1.6546659,
        "lat_max": 13.083333,
        "lon_min": 8.3822176,
        "lon_max": 16.1921476
    },
    {
        "iso": "COD",
        "country_name": "Congo, the Democratic Republic of the",
        "lat_min": -4.2726671,
        "lat_max": -4.2723703,
        "lon_min": 15.2829578,
        "lon_max": 15.283136
    },
    {
        "iso": "COG",
        "country_name": "Congo",
        "lat_min": -5.149089,
        "lat_max": 3.713056,
        "lon_min": 11.0048205,
        "lon_max": 18.643611
    },
    {
        "iso": "COK",
        "country_name": "Cook Islands",
        "lat_min": -22.15807,
        "lat_max": -8.7168792,
        "lon_min": -166.0856468,
        "lon_max": -157.1089329
    },
    {
        "iso": "COL",
        "country_name": "Colombia",
        "lat_min": -4.2316872,
        "lat_max": 16.0571269,
        "lon_min": -82.1243666,
        "lon_max": -66.8511907
    },
    {
        "iso": "COM",
        "country_name": "Comoros",
        "lat_min": -12.621,
        "lat_max": -11.165,
        "lon_min": 43.025305,
        "lon_max": 44.7451922
    },
    {
        "iso": "CPV",
        "country_name": "Cape Verde",
        "lat_min": 14.8031546,
        "lat_max": 17.2053108,
        "lon_min": -25.3609478,
        "lon_max": -22.6673416
    },
    {
        "iso": "CRI",
        "country_name": "Costa Rica",
        "lat_min": 5.3329698,
        "lat_max": 11.2195684,
        "lon_min": -87.2722647,
        "lon_max": -82.5060208
    },
    {
        "iso": "CUB",
        "country_name": "Cuba",
        "lat_min": 19.6275294,
        "lat_max": 23.4816972,
        "lon_min": -85.1679702,
        "lon_max": -73.9190004
    },
    {
        "iso": "CXR",
        "country_name": "Christmas Island",
        "lat_min": -10.5698515,
        "lat_max": -10.4123553,
        "lon_min": 105.5336422,
        "lon_max": 105.7130159
    },
    {
        "iso": "CYM",
        "country_name": "Cayman Islands",
        "lat_min": 19.0620619,
        "lat_max": 19.9573759,
        "lon_min": -81.6313748,
        "lon_max": -79.5110954
    },
    {
        "iso": "CYP",
        "country_name": "Cyprus",
        "lat_min": 27.4823018,
        "lat_max": 42.4823018,
        "lon_min": 25.6451285,
        "lon_max": 40.6451285
    },
    {
        "iso": "CZE",
        "country_name": "Czech Republic",
        "lat_min": 48.5518083,
        "lat_max": 51.0557036,
        "lon_min": 12.0905901,
        "lon_max": 18.859216
    },
    {
        "iso": "DEU",
        "country_name": "Germany",
        "lat_min": 47.2701114,
        "lat_max": 55.099161,
        "lon_min": 5.8663153,
        "lon_max": 15.0419319
    },
    {
        "iso": "DJI",
        "country_name": "Djibouti",
        "lat_min": 10.9149547,
        "lat_max": 12.7923081,
        "lon_min": 41.7713139,
        "lon_max": 43.6579046
    },
    {
        "iso": "DMA",
        "country_name": "Dominica",
        "lat_min": 15.0074207,
        "lat_max": 15.7872222,
        "lon_min": -61.6869184,
        "lon_max": -61.0329895
    },
    {
        "iso": "DNK",
        "country_name": "Denmark",
        "lat_min": 54.4516667,
        "lat_max": 57.9524297,
        "lon_min": 7.7153255,
        "lon_max": 15.5530641
    },
    {
        "iso": "DOM",
        "country_name": "Dominican Republic",
        "lat_min": 17.2701708,
        "lat_max": 21.303433,
        "lon_min": -72.0574706,
        "lon_max": -68.1101463
    },
    {
        "iso": "DZA",
        "country_name": "Algeria",
        "lat_min": 18.968147,
        "lat_max": 37.2962055,
        "lon_min": -8.668908,
        "lon_max": 11.997337
    },
    {
        "iso": "ECU",
        "country_name": "Ecuador",
        "lat_min": -5.0159314,
        "lat_max": 1.8835964,
        "lon_min": -92.2072392,
        "lon_max": -75.192504
    },
    {
        "iso": "EGY",
        "country_name": "Egypt",
        "lat_min": 22,
        "lat_max": 31.8330854,
        "lon_min": 24.6499112,
        "lon_max": 37.1153517
    },
    {
        "iso": "ERI",
        "country_name": "Eritrea",
        "lat_min": 25.2197993,
        "lat_max": 25.2220008,
        "lon_min": 55.1720522,
        "lon_max": 55.1736716
    },
    {
        "iso": "ESH",
        "country_name": "Western Sahara",
        "lat_min": 24.1597324,
        "lat_max": 24.1997324,
        "lon_min": -13.7867848,
        "lon_max": -13.7467848
    },
    {
        "iso": "ESP",
        "country_name": "Spain",
        "lat_min": 27.4335426,
        "lat_max": 43.9933088,
        "lon_min": -18.3936845,
        "lon_max": 4.5918885
    },
    {
        "iso": "EST",
        "country_name": "Estonia",
        "lat_min": 57.5092997,
        "lat_max": 59.9383754,
        "lon_min": 21.3826069,
        "lon_max": 28.2100175
    },
    {
        "iso": "ETH",
        "country_name": "Ethiopia",
        "lat_min": 3.397448,
        "lat_max": 14.8940537,
        "lon_min": 32.9975838,
        "lon_max": 47.9823797
    },
    {
        "iso": "FIN",
        "country_name": "Finland",
        "lat_min": 59.4541578,
        "lat_max": 70.0922939,
        "lon_min": 19.0832098,
        "lon_max": 31.5867071
    },
    {
        "iso": "FJI",
        "country_name": "Fiji",
        "lat_min": -21.9434274,
        "lat_max": -12.2613866,
        "lon_min": -180,
        "lon_max": 180
    },
    {
        "iso": "FLK",
        "country_name": "Falkland Islands (Malvinas)",
        "lat_min": -53.1186766,
        "lat_max": -50.7973007,
        "lon_min": -61.7726772,
        "lon_max": -57.3662367
    },
    {
        "iso": "FRA",
        "country_name": "France",
        "lat_min": 41.2632185,
        "lat_max": 51.268318,
        "lon_min": -5.4534286,
        "lon_max": 9.8678344
    },
    {
        "iso": "FRO",
        "country_name": "Faroe Islands",
        "lat_min": 61.3915553,
        "lat_max": 62.3942991,
        "lon_min": -7.6882939,
        "lon_max": -6.2565525
    },
    {
        "iso": "FSM",
        "country_name": "Micronesia, Federated States of",
        "lat_min": 0.827,
        "lat_max": 10.291,
        "lon_min": 137.2234512,
        "lon_max": 163.2364054
    },
    {
        "iso": "GAB",
        "country_name": "Gabon",
        "lat_min": -4.1012261,
        "lat_max": 2.3182171,
        "lon_min": 8.5002246,
        "lon_max": 14.539444
    },
    {
        "iso": "GBR",
        "country_name": "United Kingdom",
        "lat_min": 25.2223186,
        "lat_max": 25.2241651,
        "lon_min": 55.1579517,
        "lon_max": 55.1606916
    },
    {
        "iso": "GEO",
        "country_name": "Georgia",
        "lat_min": 30.355757,
        "lat_max": 35.0013544,
        "lon_min": -85.6051201,
        "lon_max": -80.7514321
    },
    {
        "iso": "GGY",
        "country_name": "Guernsey",
        "lat_min": 49.4155331,
        "lat_max": 49.5090776,
        "lon_min": -2.6751703,
        "lon_max": -2.501814
    },
    {
        "iso": "GHA",
        "country_name": "Ghana",
        "lat_min": 4.5392525,
        "lat_max": 11.1748562,
        "lon_min": -3.260786,
        "lon_max": 1.2732942
    },
    {
        "iso": "GIB",
        "country_name": "Gibraltar",
        "lat_min": 36.100807,
        "lat_max": 36.180807,
        "lon_min": -5.3941295,
        "lon_max": -5.3141295
    },
    {
        "iso": "GIN",
        "country_name": "Guinea",
        "lat_min": 38.1240893,
        "lat_max": 38.1640893,
        "lon_min": -77.4591124,
        "lon_max": -77.4191124
    },
    {
        "iso": "GLP",
        "country_name": "Guadeloupe",
        "lat_min": 15.8320085,
        "lat_max": 16.5144664,
        "lon_min": -61.809764,
        "lon_max": -61.0003663
    },
    {
        "iso": "GMB",
        "country_name": "Gambia",
        "lat_min": 13.061,
        "lat_max": 13.8253137,
        "lon_min": -17.0288254,
        "lon_max": -13.797778
    },
    {
        "iso": "GNB",
        "country_name": "Guinea-Bissau",
        "lat_min": 10.6514215,
        "lat_max": 12.6862384,
        "lon_min": -16.894523,
        "lon_max": -13.6348777
    },
    {
        "iso": "GNQ",
        "country_name": "Equatorial Guinea",
        "lat_min": -1.6732196,
        "lat_max": 3.989,
        "lon_min": 5.4172943,
        "lon_max": 11.3598628
    },
    {
        "iso": "GRC",
        "country_name": "Greece",
        "lat_min": 34.7006096,
        "lat_max": 41.7488862,
        "lon_min": 19.2477876,
        "lon_max": 29.7296986
    },
    {
        "iso": "GRD",
        "country_name": "Grenada",
        "lat_min": 11.786,
        "lat_max": 12.5966532,
        "lon_min": -62.0065868,
        "lon_max": -61.1732143
    },
    {
        "iso": "GRL",
        "country_name": "Greenland",
        "lat_min": 43.0015105,
        "lat_max": 43.0770931,
        "lon_min": -70.907562,
        "lon_max": -70.805801
    },
    {
        "iso": "GTM",
        "country_name": "Guatemala",
        "lat_min": 13.6345804,
        "lat_max": 17.8165947,
        "lon_min": -92.3105242,
        "lon_max": -88.1755849
    },
    {
        "iso": "GUF",
        "country_name": "French Guiana",
        "lat_min": 2.112222,
        "lat_max": 5.7507111,
        "lon_min": -54.60278,
        "lon_max": -51.6346139
    },
    {
        "iso": "GUM",
        "country_name": "Guam",
        "lat_min": 13.182335,
        "lat_max": 13.706179,
        "lon_min": 144.563426,
        "lon_max": 145.009167
    },
    {
        "iso": "GUY",
        "country_name": "Guyana",
        "lat_min": 1.1710017,
        "lat_max": 8.6038842,
        "lon_min": -61.414905,
        "lon_max": -56.4689543
    },
    {
        "iso": "HKG",
        "country_name": "Hong Kong",
        "lat_min": 22.1193278,
        "lat_max": 22.4393278,
        "lon_min": 114.0028131,
        "lon_max": 114.3228131
    },
    {
        "iso": "HMD",
        "country_name": "Heard Island and McDonald Islands",
        "lat_min": -53.394741,
        "lat_max": -52.7030677,
        "lon_min": 72.2460938,
        "lon_max": 74.1988754
    },
    {
        "iso": "HND",
        "country_name": "Honduras",
        "lat_min": 12.9808485,
        "lat_max": 17.619526,
        "lon_min": -89.3568207,
        "lon_max": -82.1729621
    },
    {
        "iso": "HRV",
        "country_name": "Croatia",
        "lat_min": 42.1765993,
        "lat_max": 46.555029,
        "lon_min": 13.2104814,
        "lon_max": 19.4470842
    },
    {
        "iso": "HTI",
        "country_name": "Haiti",
        "lat_min": 21.7470269,
        "lat_max": 21.7870269,
        "lon_min": -78.1147805,
        "lon_max": -78.0747805
    },
    {
        "iso": "HUN",
        "country_name": "Hungary",
        "lat_min": 45.737128,
        "lat_max": 48.585257,
        "lon_min": 16.1138867,
        "lon_max": 22.8977094
    },
    {
        "iso": "IDN",
        "country_name": "Indonesia",
        "lat_min": -11.2085669,
        "lat_max": 6.2744496,
        "lon_min": 94.7717124,
        "lon_max": 141.0194444
    },
    {
        "iso": "IMN",
        "country_name": "Isle of Man",
        "lat_min": 54.0539576,
        "lat_max": 54.4178705,
        "lon_min": -4.7946845,
        "lon_max": -4.3076853
    },
    {
        "iso": "IND",
        "country_name": "India",
        "lat_min": 6.5546079,
        "lat_max": 35.6745457,
        "lon_min": 68.1113787,
        "lon_max": 97.395561
    },
    {
        "iso": "IOT",
        "country_name": "British Indian Ocean Territory",
        "lat_min": -7.6454079,
        "lat_max": -5.037066,
        "lon_min": 71.036504,
        "lon_max": 72.7020157
    },
    {
        "iso": "IRL",
        "country_name": "Ireland",
        "lat_min": 51.222,
        "lat_max": 55.636,
        "lon_min": -11.0133788,
        "lon_max": -5.6582363
    },
    {
        "iso": "IRN",
        "country_name": "Iran, Islamic Republic of",
        "lat_min": 24.8465103,
        "lat_max": 39.7816502,
        "lon_min": 44.0318908,
        "lon_max": 63.3332704
    },
    {
        "iso": "IRQ",
        "country_name": "Iraq",
        "lat_min": 29.0585661,
        "lat_max": 37.380932,
        "lon_min": 38.7936719,
        "lon_max": 48.8412702
    },
    {
        "iso": "ISL",
        "country_name": "Iceland",
        "lat_min": 51.3863696,
        "lat_max": 51.3868275,
        "lon_min": 0.5475318,
        "lon_max": 0.5479162
    },
    {
        "iso": "ISR",
        "country_name": "Israel",
        "lat_min": 29.4533796,
        "lat_max": 33.3356317,
        "lon_min": 34.2674994,
        "lon_max": 35.8950234
    },
    {
        "iso": "ITA",
        "country_name": "Italy",
        "lat_min": 35.2889616,
        "lat_max": 47.0921462,
        "lon_min": 6.6272658,
        "lon_max": 18.7844746
    },
    {
        "iso": "JAM",
        "country_name": "Jamaica",
        "lat_min": 16.5899443,
        "lat_max": 18.7256394,
        "lon_min": -78.5782366,
        "lon_max": -75.7541143
    },
    {
        "iso": "JEY",
        "country_name": "Jersey",
        "lat_min": 49.1625179,
        "lat_max": 49.2621288,
        "lon_min": -2.254512,
        "lon_max": -2.0104193
    },
    {
        "iso": "JOR",
        "country_name": "Jordan",
        "lat_min": 10.5378127,
        "lat_max": 10.6910595,
        "lon_min": 122.4078085,
        "lon_max": 122.6356296
    },
    {
        "iso": "JPN",
        "country_name": "Japan",
        "lat_min": 20.2145811,
        "lat_max": 45.7112046,
        "lon_min": 122.7141754,
        "lon_max": 154.205541
    },
    {
        "iso": "KAZ",
        "country_name": "Kazakhstan",
        "lat_min": 40.5686476,
        "lat_max": 55.4421701,
        "lon_min": 46.4932179,
        "lon_max": 87.3156316
    },
    {
        "iso": "KEN",
        "country_name": "Kenya",
        "lat_min": -4.8995204,
        "lat_max": 4.62,
        "lon_min": 33.9098987,
        "lon_max": 41.899578
    },
    {
        "iso": "KGZ",
        "country_name": "Kyrgyzstan",
        "lat_min": 39.1728437,
        "lat_max": 43.2667971,
        "lon_min": 69.2649523,
        "lon_max": 80.2295793
    },
    {
        "iso": "KHM",
        "country_name": "Cambodia",
        "lat_min": 9.4752639,
        "lat_max": 14.6904224,
        "lon_min": 102.3338282,
        "lon_max": 107.6276788
    },
    {
        "iso": "KIR",
        "country_name": "Kiribati",
        "lat_min": -7.0516717,
        "lat_max": 7.9483283,
        "lon_min": -179.1645388,
        "lon_max": -164.1645388
    },
    {
        "iso": "KNA",
        "country_name": "Saint Kitts and Nevis",
        "lat_min": 16.895,
        "lat_max": 17.6158146,
        "lon_min": -63.051129,
        "lon_max": -62.3303519
    },
    {
        "iso": "KOR",
        "country_name": "Korea, Republic of",
        "lat_min": 37.52806,
        "lat_max": 37.52816,
        "lon_min": 126.89575,
        "lon_max": 126.89585
    },
    {
        "iso": "KWT",
        "country_name": "Kuwait",
        "lat_min": -12.0494672,
        "lat_max": -12.0094672,
        "lon_min": -72.8801102,
        "lon_max": -72.8401102
    },
    {
        "iso": "LAO",
        "country_name": "Lao People's Democratic Republic",
        "lat_min": 13.9096752,
        "lat_max": 22.5086717,
        "lon_min": 100.0843247,
        "lon_max": 107.6349989
    },
    {
        "iso": "LBN",
        "country_name": "Lebanon",
        "lat_min": 40.3199193,
        "lat_max": 40.355802,
        "lon_min": -76.4508668,
        "lon_max": -76.391965
    },
    {
        "iso": "LBR",
        "country_name": "Liberia",
        "lat_min": 4.1555907,
        "lat_max": 8.5519861,
        "lon_min": -11.6080764,
        "lon_max": -7.367323
    },
    {
        "iso": "LBY",
        "country_name": "Libyan Arab Jamahiriya",
        "lat_min": 19.5008138,
        "lat_max": 33.3545898,
        "lon_min": 9.391081,
        "lon_max": 25.3770629
    },
    {
        "iso": "LCA",
        "country_name": "Saint Lucia",
        "lat_min": 13.508,
        "lat_max": 14.2725,
        "lon_min": -61.2853867,
        "lon_max": -60.6669363
    },
    {
        "iso": "LIE",
        "country_name": "Liechtenstein",
        "lat_min": 47.0484291,
        "lat_max": 47.270581,
        "lon_min": 9.4716736,
        "lon_max": 9.6357143
    },
    {
        "iso": "LKA",
        "country_name": "Sri Lanka",
        "lat_min": 25.2287738,
        "lat_max": 25.2303051,
        "lon_min": 55.1813071,
        "lon_max": 55.1828523
    },
    {
        "iso": "LSO",
        "country_name": "Lesotho",
        "lat_min": -30.6772773,
        "lat_max": -28.570615,
        "lon_min": 27.0114632,
        "lon_max": 29.4557099
    },
    {
        "iso": "LTU",
        "country_name": "Lithuania",
        "lat_min": 53.8967893,
        "lat_max": 56.4504213,
        "lon_min": 20.653783,
        "lon_max": 26.8355198
    },
    {
        "iso": "LUX",
        "country_name": "Luxembourg",
        "lat_min": 49.4969821,
        "lat_max": 50.430377,
        "lon_min": 4.9684415,
        "lon_max": 6.0344254
    },
    {
        "iso": "LVA",
        "country_name": "Latvia",
        "lat_min": 55.6746505,
        "lat_max": 58.0855688,
        "lon_min": 20.6715407,
        "lon_max": 28.2414904
    },
    {
        "iso": "MAC",
        "country_name": "Macao",
        "lat_min": 25.2349583,
        "lat_max": 25.2368385,
        "lon_min": 55.1803834,
        "lon_max": 55.1821684
    },
    {
        "iso": "MAF",
        "country_name": "Saint Martin (French part)",
        "lat_min": 17.8963535,
        "lat_max": 18.1902778,
        "lon_min": -63.3605643,
        "lon_max": -62.7644063
    },
    {
        "iso": "MAR",
        "country_name": "Morocco",
        "lat_min": 21.3365321,
        "lat_max": 36.0505269,
        "lon_min": -17.2551456,
        "lon_max": -0.998429
    },
    {
        "iso": "MCO",
        "country_name": "Monaco",
        "lat_min": 43.7247599,
        "lat_max": 43.7519311,
        "lon_min": 7.4090279,
        "lon_max": 7.4398704
    },
    {
        "iso": "MDA",
        "country_name": "Moldova, Republic of",
        "lat_min": 46.6744934,
        "lat_max": 46.6745934,
        "lon_min": 29.7521496,
        "lon_max": 29.7522496
    },
    {
        "iso": "MDG",
        "country_name": "Madagascar",
        "lat_min": -25.6071002,
        "lat_max": -11.9519693,
        "lon_min": 43.2202072,
        "lon_max": 50.4862553
    },
    {
        "iso": "MDV",
        "country_name": "Maldives",
        "lat_min": 25.2252959,
        "lat_max": 25.2263769,
        "lon_min": 55.1823199,
        "lon_max": 55.1837469
    },
    {
        "iso": "MEX",
        "country_name": "Mexico",
        "lat_min": 19.2726009,
        "lat_max": 19.5926009,
        "lon_min": -99.2933416,
        "lon_max": -98.9733416
    },
    {
        "iso": "MHL",
        "country_name": "Marshall Islands",
        "lat_min": -0.5481258,
        "lat_max": 14.4518742,
        "lon_min": 163.4985095,
        "lon_max": 178.4985095
    },
    {
        "iso": "MKD",
        "country_name": "Macedonia, the former Yugoslav Republic of",
        "lat_min": 40.8536596,
        "lat_max": 42.3735359,
        "lon_min": 20.4529023,
        "lon_max": 23.034051
    },
    {
        "iso": "MLI",
        "country_name": "Mali",
        "lat_min": 10.147811,
        "lat_max": 25.001084,
        "lon_min": -12.2402835,
        "lon_max": 4.2673828
    },
    {
        "iso": "MLT",
        "country_name": "Malta",
        "lat_min": 35.6029696,
        "lat_max": 36.2852706,
        "lon_min": 13.9324226,
        "lon_max": 14.8267966
    },
    {
        "iso": "MMR",
        "country_name": "Myanmar",
        "lat_min": 9.4399432,
        "lat_max": 28.547835,
        "lon_min": 92.1719423,
        "lon_max": 101.1700796
    },
    {
        "iso": "MNE",
        "country_name": "Montenegro",
        "lat_min": -29.8446455,
        "lat_max": -29.5743342,
        "lon_min": -51.662,
        "lon_max": -51.3498193
    },
    {
        "iso": "MNG",
        "country_name": "Mongolia",
        "lat_min": 41.5800276,
        "lat_max": 52.1496,
        "lon_min": 87.73762,
        "lon_max": 119.931949
    },
    {
        "iso": "MNP",
        "country_name": "Northern Mariana Islands",
        "lat_min": 14.036565,
        "lat_max": 20.616556,
        "lon_min": 144.813338,
        "lon_max": 146.154418
    },
    {
        "iso": "MOZ",
        "country_name": "Mozambique",
        "lat_min": 19.038889,
        "lat_max": 19.078889,
        "lon_min": -96.274167,
        "lon_max": -96.234167
    },
    {
        "iso": "MRT",
        "country_name": "Mauritania",
        "lat_min": 25.2143602,
        "lat_max": 25.2163939,
        "lon_min": 55.1665334,
        "lon_max": 55.1690669
    },
    {
        "iso": "MSR",
        "country_name": "Montserrat",
        "lat_min": 16.475,
        "lat_max": 17.0152978,
        "lon_min": -62.450667,
        "lon_max": -61.9353818
    },
    {
        "iso": "MTQ",
        "country_name": "Martinique",
        "lat_min": 14.3948596,
        "lat_max": 14.8787029,
        "lon_min": -61.2290815,
        "lon_max": -60.8095833
    },
    {
        "iso": "MUS",
        "country_name": "Mauritius",
        "lat_min": -20.725,
        "lat_max": -10.138,
        "lon_min": 56.3825151,
        "lon_max": 63.7151319
    },
    {
        "iso": "MWI",
        "country_name": "Malawi",
        "lat_min": -17.1296031,
        "lat_max": -9.3683261,
        "lon_min": 32.6703616,
        "lon_max": 35.9185731
    },
    {
        "iso": "MYS",
        "country_name": "Malaysia",
        "lat_min": -5.1076241,
        "lat_max": 9.8923759,
        "lon_min": 105.3471939,
        "lon_max": 120.3471939
    },
    {
        "iso": "MYT",
        "country_name": "Mayotte",
        "lat_min": -13.0210119,
        "lat_max": -12.6365902,
        "lon_min": 45.0183298,
        "lon_max": 45.2999917
    },
    {
        "iso": "NAM",
        "country_name": "Namibia",
        "lat_min": -28.96945,
        "lat_max": -16.9634855,
        "lon_min": 11.5280384,
        "lon_max": 25.2617671
    },
    {
        "iso": "NCL",
        "country_name": "New Caledonia",
        "lat_min": 33.0351363,
        "lat_max": 33.0751363,
        "lon_min": -92.6876556,
        "lon_max": -92.6476556
    },
    {
        "iso": "NER",
        "country_name": "Niger",
        "lat_min": 11.693756,
        "lat_max": 23.517178,
        "lon_min": 0.1689653,
        "lon_max": 15.996667
    },
    {
        "iso": "NFK",
        "country_name": "Norfolk Island",
        "lat_min": -29.333,
        "lat_max": -28.796,
        "lon_min": 167.6873878,
        "lon_max": 168.2249543
    },
    {
        "iso": "NGA",
        "country_name": "Nigeria",
        "lat_min": 4.0690959,
        "lat_max": 13.885645,
        "lon_min": 2.676932,
        "lon_max": 14.678014
    },
    {
        "iso": "NIC",
        "country_name": "Nicaragua",
        "lat_min": 10.7076565,
        "lat_max": 15.0331183,
        "lon_min": -87.901532,
        "lon_max": -82.6227023
    },
    {
        "iso": "NIU",
        "country_name": "Niue",
        "lat_min": -19.0840514,
        "lat_max": -19.0739661,
        "lon_min": -169.9383436,
        "lon_max": -169.9129672
    },
    {
        "iso": "NLD",
        "country_name": "Netherlands",
        "lat_min": 11.825,
        "lat_max": 53.7253321,
        "lon_min": -68.6255319,
        "lon_max": 7.2274985
    },
    {
        "iso": "NOR",
        "country_name": "Norway",
        "lat_min": 57.7590052,
        "lat_max": 71.3848787,
        "lon_min": 4.0875274,
        "lon_max": 31.7614911
    },
    {
        "iso": "NPL",
        "country_name": "Nepal",
        "lat_min": 26.3477581,
        "lat_max": 30.446945,
        "lon_min": 80.0586226,
        "lon_max": 88.2015257
    },
    {
        "iso": "NRU",
        "country_name": "Nauru",
        "lat_min": -0.5541334,
        "lat_max": -0.5025906,
        "lon_min": 166.9091794,
        "lon_max": 166.9589235
    },
    {
        "iso": "NZL",
        "country_name": "New Zealand",
        "lat_min": -52.8213687,
        "lat_max": -29.0303303,
        "lon_min": -179.059153,
        "lon_max": 179.3643594
    },
    {
        "iso": "OMN",
        "country_name": "Oman",
        "lat_min": 25.2268538,
        "lat_max": 25.2291352,
        "lon_min": 55.1759911,
        "lon_max": 55.1773672
    },
    {
        "iso": "PAK",
        "country_name": "Pakistan",
        "lat_min": 23.5393916,
        "lat_max": 37.084107,
        "lon_min": 60.872855,
        "lon_max": 77.1203914
    },
    {
        "iso": "PAN",
        "country_name": "Panama",
        "lat_min": 35.246906,
        "lat_max": 35.286906,
        "lon_min": -119.0767707,
        "lon_max": -119.0367707
    },
    {
        "iso": "PCN",
        "country_name": "Pitcairn",
        "lat_min": -25.1306736,
        "lat_max": -23.8655769,
        "lon_min": -130.8049862,
        "lon_max": -124.717534
    },
    {
        "iso": "PER",
        "country_name": "Peru",
        "lat_min": 41.309511,
        "lat_max": 41.38197,
        "lon_min": -89.164781,
        "lon_max": -89.105652
    },
    {
        "iso": "PHL",
        "country_name": "Philippines",
        "lat_min": 4.2158064,
        "lat_max": 21.3217806,
        "lon_min": 114.0952145,
        "lon_max": 126.8072562
    },
    {
        "iso": "PLW",
        "country_name": "Palau",
        "lat_min": 42.5481153,
        "lat_max": 42.5844284,
        "lon_min": 2.9351868,
        "lon_max": 2.9840518
    },
    {
        "iso": "PNG",
        "country_name": "Papua New Guinea",
        "lat_min": -13.1816069,
        "lat_max": 1.8183931,
        "lon_min": 136.7489081,
        "lon_max": 151.7489081
    },
    {
        "iso": "POL",
        "country_name": "Poland",
        "lat_min": 49.0020468,
        "lat_max": 55.0336963,
        "lon_min": 14.1229707,
        "lon_max": 24.145783
    },
    {
        "iso": "PRI",
        "country_name": "Puerto Rico",
        "lat_min": 17.9268695,
        "lat_max": 18.5159789,
        "lon_min": -67.271492,
        "lon_max": -65.5897525
    },
    {
        "iso": "PRK",
        "country_name": "Korea, Democratic People's Republic of",
        "lat_min": 37.5867855,
        "lat_max": 43.0089642,
        "lon_min": 124.0913902,
        "lon_max": 130.924647
    },
    {
        "iso": "PRT",
        "country_name": "Portugal",
        "lat_min": 29.8288021,
        "lat_max": 42.1543112,
        "lon_min": -31.5575303,
        "lon_max": -6.1891593
    },
    {
        "iso": "PRY",
        "country_name": "Paraguay",
        "lat_min": -27.6063935,
        "lat_max": -19.2876472,
        "lon_min": -62.6442036,
        "lon_max": -54.258
    },
    {
        "iso": "PSE",
        "country_name": "Palestinian Territory, Occupied",
        "lat_min": 31.2201289,
        "lat_max": 32.5521479,
        "lon_min": 34.0689732,
        "lon_max": 35.5739235
    },
    {
        "iso": "PYF",
        "country_name": "French Polynesia",
        "lat_min": -28.0990232,
        "lat_max": -7.6592173,
        "lon_min": -154.9360599,
        "lon_max": -134.244799
    },
    {
        "iso": "QAT",
        "country_name": "Qatar",
        "lat_min": 25.2271767,
        "lat_max": 25.2289841,
        "lon_min": 55.1726803,
        "lon_max": 55.1741485
    },
    {
        "iso": "REU",
        "country_name": "Réunion",
        "lat_min": -21.3897308,
        "lat_max": -20.8717136,
        "lon_min": 55.2164268,
        "lon_max": 55.8366924
    },
    {
        "iso": "ROU",
        "country_name": "Romania",
        "lat_min": 43.618682,
        "lat_max": 48.2653964,
        "lon_min": 20.2619773,
        "lon_max": 30.0454257
    },
    {
        "iso": "RUS",
        "country_name": "Russian Federation",
        "lat_min": 41.1850968,
        "lat_max": 82.0586232,
        "lon_min": 19.6389,
        "lon_max": 180
    },
    {
        "iso": "RWA",
        "country_name": "Rwanda",
        "lat_min": -2.8389804,
        "lat_max": -1.0474083,
        "lon_min": 28.8617546,
        "lon_max": 30.8990738
    },
    {
        "iso": "SAU",
        "country_name": "Saudi Arabia",
        "lat_min": 14.4840316,
        "lat_max": 14.4846897,
        "lon_min": 121.0177023,
        "lon_max": 121.0265441
    },
    {
        "iso": "SDN",
        "country_name": "Sudan",
        "lat_min": 10.88,
        "lat_max": 10.92,
        "lon_min": 6.48,
        "lon_max": 6.52
    },
    {
        "iso": "SEN",
        "country_name": "Senegal",
        "lat_min": 12.2372838,
        "lat_max": 16.6919712,
        "lon_min": -17.7862419,
        "lon_max": -11.3458996
    },
    {
        "iso": "SGP",
        "country_name": "Singapore",
        "lat_min": 1.1304753,
        "lat_max": 1.4504753,
        "lon_min": 103.6920359,
        "lon_max": 104.0120359
    },
    {
        "iso": "SGS",
        "country_name": "South Georgia and the South Sandwich Islands",
        "lat_min": -59.684,
        "lat_max": -53.3500755,
        "lon_min": -42.354739,
        "lon_max": -25.8468303
    },
    {
        "iso": "SHN",
        "country_name": "Saint Helena, Ascension and Tristan da Cunha",
        "lat_min": -16.23,
        "lat_max": -15.704,
        "lon_min": -5.9973424,
        "lon_max": -5.4234153
    },
    {
        "iso": "SJM",
        "country_name": "Svalbard and Jan Mayen",
        "lat_min": 70.6260825,
        "lat_max": 81.028076,
        "lon_min": -9.6848146,
        "lon_max": 34.6891253
    },
    {
        "iso": "SLB",
        "country_name": "Solomon Islands",
        "lat_min": -13.2424298,
        "lat_max": -4.81085,
        "lon_min": 155.3190556,
        "lon_max": 170.3964667
    },
    {
        "iso": "SLE",
        "country_name": "Sierra Leone",
        "lat_min": 6.755,
        "lat_max": 9.999973,
        "lon_min": -13.5003389,
        "lon_max": -10.271683
    },
    {
        "iso": "SLV",
        "country_name": "El Salvador",
        "lat_min": 12.976046,
        "lat_max": 14.4510488,
        "lon_min": -90.1790975,
        "lon_max": -87.6351394
    },
    {
        "iso": "SMR",
        "country_name": "San Marino",
        "lat_min": 43.8937002,
        "lat_max": 43.992093,
        "lon_min": 12.4033246,
        "lon_max": 12.5160665
    },
    {
        "iso": "SOM",
        "country_name": "Somalia",
        "lat_min": -13.200556,
        "lat_max": -13.160556,
        "lon_min": 15.246667,
        "lon_max": 15.286667
    },
    {
        "iso": "SPM",
        "country_name": "Saint Pierre and Miquelon",
        "lat_min": 46.5507173,
        "lat_max": 47.365,
        "lon_min": -56.6972961,
        "lon_max": -55.9033333
    },
    {
        "iso": "SRB",
        "country_name": "Serbia",
        "lat_min": 42.2322435,
        "lat_max": 46.1900524,
        "lon_min": 18.8142875,
        "lon_max": 23.006309
    },
    {
        "iso": "STP",
        "country_name": "Sao Tome and Principe",
        "lat_min": -0.2135137,
        "lat_max": 1.9257601,
        "lon_min": 6.260642,
        "lon_max": 7.6704783
    },
    {
        "iso": "SUR",
        "country_name": "Suriname",
        "lat_min": 1.8312802,
        "lat_max": 6.225,
        "lon_min": -58.070833,
        "lon_max": -53.8433358
    },
    {
        "iso": "SVK",
        "country_name": "Slovakia",
        "lat_min": 47.7314286,
        "lat_max": 49.6138162,
        "lon_min": 16.8331891,
        "lon_max": 22.56571
    },
    {
        "iso": "SVN",
        "country_name": "Slovenia",
        "lat_min": 45.4214242,
        "lat_max": 46.8766816,
        "lon_min": 13.3754696,
        "lon_max": 16.5967702
    },
    {
        "iso": "SWE",
        "country_name": "Sweden",
        "lat_min": 55.1331192,
        "lat_max": 69.0599699,
        "lon_min": 10.5930952,
        "lon_max": 24.1776819
    },
    {
        "iso": "SWZ",
        "country_name": "Swaziland",
        "lat_min": 25.2156672,
        "lat_max": 25.217255,
        "lon_min": 55.1807318,
        "lon_max": 55.18286
    },
    {
        "iso": "SYC",
        "country_name": "Seychelles",
        "lat_min": 25.2237725,
        "lat_max": 25.2250726,
        "lon_min": 55.1816849,
        "lon_max": 55.184065
    },
    {
        "iso": "SYR",
        "country_name": "Syrian Arab Republic",
        "lat_min": 27.1401861,
        "lat_max": 42.1401861,
        "lon_min": 31.5494106,
        "lon_max": 46.5494106
    },
    {
        "iso": "TCA",
        "country_name": "Turks and Caicos Islands",
        "lat_min": 20.9553418,
        "lat_max": 22.1630989,
        "lon_min": -72.6799046,
        "lon_max": -70.8643591
    },
    {
        "iso": "TCD",
        "country_name": "Chad",
        "lat_min": 7.44107,
        "lat_max": 23.4975,
        "lon_min": 13.47348,
        "lon_max": 24
    },
    {
        "iso": "TGO",
        "country_name": "Togo",
        "lat_min": 5.926547,
        "lat_max": 11.1395102,
        "lon_min": -0.1439746,
        "lon_max": 1.8087605
    },
    {
        "iso": "THA",
        "country_name": "Thailand",
        "lat_min": 5.612851,
        "lat_max": 20.4648337,
        "lon_min": 97.3438072,
        "lon_max": 105.636812
    },
    {
        "iso": "TJK",
        "country_name": "Tajikistan",
        "lat_min": 36.6711153,
        "lat_max": 41.0450935,
        "lon_min": 67.3332775,
        "lon_max": 75.1539563
    },
    {
        "iso": "TKL",
        "country_name": "Tokelau",
        "lat_min": -9.6442499,
        "lat_max": -8.3328631,
        "lon_min": -172.7213673,
        "lon_max": -170.9797586
    },
    {
        "iso": "TKM",
        "country_name": "Turkmenistan",
        "lat_min": 35.129093,
        "lat_max": 42.7975571,
        "lon_min": 52.335076,
        "lon_max": 66.6895177
    },
    {
        "iso": "TLS",
        "country_name": "Timor-Leste",
        "lat_min": -6.3294157,
        "lat_max": -6.3284839,
        "lon_min": 106.9549541,
        "lon_max": 106.9551755
    },
    {
        "iso": "TON",
        "country_name": "Tonga",
        "lat_min": -24.1034499,
        "lat_max": -15.3655722,
        "lon_min": -179.3866055,
        "lon_max": -173.5295458
    },
    {
        "iso": "TTO",
        "country_name": "Trinidad and Tobago",
        "lat_min": 9.8732106,
        "lat_max": 11.5628372,
        "lon_min": -62.083056,
        "lon_max": -60.2895848
    },
    {
        "iso": "TUN",
        "country_name": "Tunisia",
        "lat_min": 30.230236,
        "lat_max": 37.7612052,
        "lon_min": 7.5219807,
        "lon_max": 11.8801133
    },
    {
        "iso": "TUR",
        "country_name": "Turkey",
        "lat_min": 35.8076804,
        "lat_max": 42.297,
        "lon_min": 25.6212891,
        "lon_max": 44.8176638
    },
    {
        "iso": "TUV",
        "country_name": "Tuvalu",
        "lat_min": -10.9939389,
        "lat_max": -5.4369611,
        "lon_min": -180,
        "lon_max": 180
    },
    {
        "iso": "TWN",
        "country_name": "Taiwan, Province of China",
        "lat_min": 50.8832129,
        "lat_max": 50.8833129,
        "lon_min": 6.0296969,
        "lon_max": 6.0297969
    },
    {
        "iso": "TZA",
        "country_name": "Tanzania, United Republic of",
        "lat_min": -6.8127308,
        "lat_max": -6.812538,
        "lon_min": 39.2895223,
        "lon_max": 39.2897105
    },
    {
        "iso": "UGA",
        "country_name": "Uganda",
        "lat_min": -1.4823179,
        "lat_max": 4.2340766,
        "lon_min": 29.573433,
        "lon_max": 35.000308
    },
    {
        "iso": "UKR",
        "country_name": "Ukraine",
        "lat_min": 44.184598,
        "lat_max": 52.3791473,
        "lon_min": 22.137059,
        "lon_max": 40.2275801
    },
    {
        "iso": "UMI",
        "country_name": "United States Minor Outlying Islands",
        "lat_min": 6.1779744,
        "lat_max": 6.6514388,
        "lon_min": -162.6816297,
        "lon_max": -162.1339885
    },
    {
        "iso": "URY",
        "country_name": "Uruguay",
        "lat_min": -35.7824481,
        "lat_max": -30.0853962,
        "lon_min": -58.4948438,
        "lon_max": -53.0755833
    },
    {
        "iso": "USA",
        "country_name": "United States",
        "lat_min": 24.9493,
        "lat_max": 49.5904,
        "lon_min": -125.0011,
        "lon_max": -66.9326
    },
    {
        "iso": "UZB",
        "country_name": "Uzbekistan",
        "lat_min": 37.1821164,
        "lat_max": 45.590118,
        "lon_min": 55.9977865,
        "lon_max": 73.1397362
    },
    {
        "iso": "VAT",
        "country_name": "Holy See (Vatican City State)",
        "lat_min": 41.9002044,
        "lat_max": 41.9073912,
        "lon_min": 12.4457442,
        "lon_max": 12.4583653
    },
    {
        "iso": "VCT",
        "country_name": "Saint Vincent and the Grenadines",
        "lat_min": 12.5166548,
        "lat_max": 13.583,
        "lon_min": -61.6657471,
        "lon_max": -60.9094146
    },
    {
        "iso": "VEN",
        "country_name": "Venezuela, Bolivarian Republic of",
        "lat_min": 0.647529,
        "lat_max": 15.9158431,
        "lon_min": -73.3529632,
        "lon_max": -59.5427079
    },
    {
        "iso": "VGB",
        "country_name": "Virgin Islands, British",
        "lat_min": 17.623468,
        "lat_max": 18.464984,
        "lon_min": -65.159094,
        "lon_max": -64.512674
    },
    {
        "iso": "VIR",
        "country_name": "Virgin Islands, U.S.",
        "lat_min": 17.623468,
        "lat_max": 18.464984,
        "lon_min": -65.159094,
        "lon_max": -64.512674
    },
    {
        "iso": "VNM",
        "country_name": "Viet Nam",
        "lat_min": 8.1790665,
        "lat_max": 23.393395,
        "lon_min": 102.14441,
        "lon_max": 114.3337595
    },
    {
        "iso": "VUT",
        "country_name": "Vanuatu",
        "lat_min": -20.4627425,
        "lat_max": -12.8713777,
        "lon_min": 166.3355255,
        "lon_max": 170.449982
    },
    {
        "iso": "WLF",
        "country_name": "Wallis and Futuna",
        "lat_min": -14.5630748,
        "lat_max": -12.9827961,
        "lon_min": -178.3873749,
        "lon_max": -175.9190391
    },
    {
        "iso": "WSM",
        "country_name": "Samoa",
        "lat_min": 40.7987372,
        "lat_max": 40.8387372,
        "lon_min": -124.2064518,
        "lon_max": -124.1664518
    },
    {
        "iso": "YEM",
        "country_name": "Yemen",
        "lat_min": 11.9084802,
        "lat_max": 19,
        "lon_min": 41.60825,
        "lon_max": 54.7389375
    },
    {
        "iso": "ZAF",
        "country_name": "South Africa",
        "lat_min": -47.1788335,
        "lat_max": -22.1250301,
        "lon_min": 16.3335213,
        "lon_max": 38.2898954
    },
    {
        "iso": "ZMB",
        "country_name": "Zambia",
        "lat_min": -18.0765945,
        "lat_max": -8.2712822,
        "lon_min": 21.9993509,
        "lon_max": 33.701111
    },
    {
        "iso": "ZWE",
        "country_name": "Zimbabwe",
        "lat_min": -22.4241096,
        "lat_max": -15.6097033,
        "lon_min": 25.2373,
        "lon_max": 33.0683413
    }
]